~VERSION INFORMATION
 VERS.                          2.0   : CWLS LOG ASCII STANDARD - VERSION 2.0
 WRAP.                          NO    : ONE LINE PER DEPTH STEP
#
~Well Information Section
#MNEM     .UNIT     DATA                DESCRIPTION
#-----    -----     --------            --------------
 STRT     .M        162.0000            : START DEPTH
 STOP     .M        1616.0000           : END DEPTH
 STEP     .M        1.0000              : INCREMENT DEPTH
 NULL     .         -999.2500           : NULL VALUE
 COMP     .                             :
 WELL     .         01-08               : WELL NAME
 EKB      .M        0.0000              : KELLY BUSHING ELEVATION
 EGL      .M        0.0000              : GROUND LEVEL ELEVATION
 FLD      .                              :
 LOC      . X = 0.0000 Y = 41.0000: WELL LOCATION
 PROV     .                              :
 SRVC     .                              :
 PROV     .                              :
 DATE     .                              :
 UWI      .         Unknown              : UNIQUE WELL ID
 API      .                              :
#
~Curve Information Section
#MNEM     .UNIT               Curve #DESCRIPTION
#-----    -----               ----   --------------
 DEPTH    .M                  : 1     Name = Domain Curve - Type = DEPTH
 RHOB     .g/cc               : 2     Name = Density - Type = Density
 DT       .m/s                : 3     Name = P-wave - Type = P-wave
 DPTM     .ms (Two Way time)  : 4     Name = Depth-time_P-wave_corr_01_08 - Type = Depth-time
~A (ASCII LOG DATA)
# ...
 1386.0000          2.3296       3502.3079        994.6226
 1387.0000          2.3901       3628.3105        995.2510
 1388.0000          2.4001       3674.0098        995.8688
 1389.0000          2.4350       3763.5193        996.4695
 1390.0000          2.4766       3793.4390        997.0620
 1391.0000          2.5155       3915.2424        997.6339
 1392.0000          2.5380       3945.2200        998.1974
 1393.0000          2.5407       3962.2783        998.7543
 1394.0000          2.5397       3960.9912        999.3066
 1395.0000          2.5273       3935.6465        999.8578
 1396.0000          2.5316       3927.1448       1000.4061
 1397.0000          2.5405       3978.0701       1000.9435
 1398.0000          2.5452       4007.5359       1001.4730
 1399.0000          2.5404       4002.5510       1001.9987
 1400.0000          2.5361       4015.2415       1002.5189
 1401.0000          2.5386       4018.6531       1003.0351
 1402.0000          2.5427       4029.1924       1003.5466
 1403.0000          2.5578       4016.8628       1004.0563
 1404.0000          2.5573       3995.8052       1004.5652
 1405.0000          2.5761       3994.1426       1005.0714
 1406.0000          2.5841       4024.1470       1005.5706
 1407.0000          2.5886       4024.0305       1006.0669
 1408.0000          2.6031       4018.1294       1006.5609
 1409.0000          2.6027       4024.4924       1007.0514
 1410.0000          2.5926       4028.7004       1007.5385
 1411.0000          2.5807       4034.3291       1008.0222
 1412.0000          2.5383       4020.7458       1008.5051
 1413.0000          2.5485       3986.3921       1008.9897
 1414.0000          2.5536       3971.5066       1009.4738
 1415.0000          2.5465       3931.0806       1009.9606
 1416.0000          2.5297       3876.5928       1010.4523
 1417.0000          2.5245       3792.1060       1010.9534
 1418.0000          2.5071       3771.4956       1011.4553
 1419.0000          2.4972       3755.2542       1011.9574
 1420.0000          2.4756       3657.5747       1012.4717
 1421.0000          2.4185       3544.2813       1013.0018
 1422.0000          2.3720       3307.7273       1013.5703
 1423.0000          2.3622       3257.2517       1014.1466
 1424.0000          2.3650       3213.5898       1014.7296
 1425.0000          2.4164       3251.9077       1015.3037
 1426.0000          2.5299       3751.4438       1015.7945
 1427.0000          2.5411       3779.3652       1016.2800
 1428.0000          2.4977       3774.1074       1016.7650
 1429.0000          2.5176       3781.1504       1017.2477
 1430.0000          2.5172       3780.3037       1017.7294
 1431.0000          2.5112       3767.1328       1018.2120
 1432.0000          2.4943       3716.2456       1018.7009
 1433.0000          2.4735       3628.7263       1019.2018
 1434.0000          2.4090       3538.8770       1019.7161
 1435.0000          2.3688       3485.7031       1020.2382
 1436.0000          2.3971       3522.9580       1020.7536
 1437.0000          2.4483       3709.7400       1021.2399
 1438.0000          2.5088       3806.7065       1021.7120
 1439.0000          2.5298       3917.0535       1022.1689
 1440.0000          2.5664       4206.5293       1022.5904
 1441.0000          2.5173       4161.9775       1023.0168
 1442.0000          2.5178       4036.6296       1023.4579
 1443.0000          2.5113       4031.7529       1023.8997
 1444.0000          2.5106       4032.1951       1024.3414
 1445.0000          2.5142       4059.5996       1024.7800
 1446.0000          2.5576       4069.8459       1025.2173
 1447.0000          2.6050       4080.4827       1025.6537
 1448.0000          2.5528       3974.4111       1026.1035
 1449.0000          2.5182       3824.7317       1026.5735
 1450.0000          2.5210       3849.2319       1027.0406
 1451.0000          2.5474       3924.2927       1027.4988
 1452.0000          2.5506       4002.9788       1027.9471
 1453.0000          2.5237       3962.2151       1028.4019
 1454.0000          2.4996       3931.1379       1028.8612
 1455.0000          2.4919       3952.4924       1029.3186
 1456.0000          2.5080       3995.5222       1029.7719
 1457.0000          2.5489       4192.0894       1030.2025
 1458.0000          2.5578       4175.7061       1030.6364
 1459.0000          2.5696       4203.3213       1031.0681
 1460.0000          2.5457       4060.3357       1031.5182
 1461.0000          2.5677       4179.8789       1031.9556
 1462.0000          2.4493       4068.8062       1032.4076
 1463.0000          2.2269       3424.2068       1032.9537
 1464.0000          2.2848       3321.2483       1033.5195
 1465.0000          2.4322       3743.8738       1034.0193
 1466.0000          2.6092       4453.1152       1034.4358
 1467.0000          2.6410       4742.9629       1034.8265
 1468.0000          2.6257       4549.4526       1035.2375
 1469.0000          2.6057       4320.9614       1035.6738
 1470.0000          2.5716       4199.6060       1036.1255
 1471.0000          2.4858       4045.0913       1036.5978
 1472.0000          2.4615       3888.6294       1037.0920
 1473.0000          2.4824       3894.1228       1037.5884
 1474.0000          2.5406       3923.2041       1038.0831
 1475.0000          2.5976       4060.5686       1038.5634
 1476.0000          2.5972       4086.3098       1039.0431
 1477.0000          2.5891       4113.4487       1039.5225
 1478.0000          2.5678       4136.3350       1040.0018
 1479.0000          2.5625       4158.5044       1040.4811
 1480.0000          2.5825       4654.5313       1040.9114
 1481.0000          2.6253       4858.6240       1041.3260
 1482.0000          2.6274       4826.6543       1041.7457
 1483.0000          2.5546       4240.3633       1042.2247
 1484.0000          2.5429       4132.5161       1042.7183
 1485.0000          2.5518       4122.2817       1043.2150
 1486.0000          2.5671       4139.7900       1043.7117
 1487.0000          2.5656       4139.7515       1044.2102
 1488.0000          2.5848       4621.1523       1044.6598
 1489.0000          2.6358       5046.3877       1045.0751
 1490.0000          2.6469       4822.3794       1045.5101
 1491.0000          2.6339       4526.6440       1045.9739
 1492.0000          2.6116       4243.9272       1046.4684
 1493.0000          2.6113       4239.7642       1046.9650
 1494.0000          2.6192       4505.2197       1047.4347
 1495.0000          2.6302       4951.8711       1047.8657
 1496.0000          2.6233       4592.8076       1048.3296
 1497.0000          2.6205       4257.3936       1048.8286
 1498.0000          2.6128       4123.4712       1049.3440
 1499.0000          2.2083       3463.0989       1049.9526
 1500.0000          2.0458       3045.4404       1050.6411
 1501.0000          2.4144       3590.3604       1051.2310
 1502.0000          2.6084       4059.0918       1051.7570
 1503.0000          2.6123       4153.0171       1052.2723
 1504.0000          2.5803       4194.0117       1052.7834
 1505.0000          2.5728       4232.1084       1053.2905
 1506.0000          2.5565       4175.1343       1053.8047
 1507.0000          2.3772       3766.2290       1054.3707
 1508.0000          2.1416       3229.5823       1055.0251
 1509.0000          2.2257       3331.9326       1055.6609
 1510.0000          2.5537       3917.5813       1056.2067
 1511.0000          2.5882       4137.4414       1056.7253
 1512.0000          2.5636       4140.5562       1057.2433
 1513.0000          2.5363       4132.6255       1057.7621
 1514.0000          2.5339       4137.2510       1058.2798
 1515.0000          2.5331       4142.7256       1058.7964
 1516.0000          2.5306       4128.2256       1059.3145
 1517.0000          2.5289       4099.1992       1059.8350
 1518.0000          2.4690       3898.1589       1060.3804
 1519.0000          2.1155       3045.1533       1061.0684
 1520.0000          2.1068       2991.5547       1061.7675
 1521.0000          2.4093       3704.8291       1062.3368
