~VERSION INFORMATION
 VERS.                          2.0   : CWLS LOG ASCII STANDARD - VERSION 2.0
 WRAP.                          NO    : ONE LINE PER DEPTH STEP
#
~Well Information Section
#MNEM     .UNIT     DATA                DESCRIPTION
#-----    -----     --------            --------------
 STRT     .M        162.0000            : START DEPTH
 STOP     .M        1616.0000           : END DEPTH
 STEP     .M        1.0000              : INCREMENT DEPTH
 NULL     .         -999.2500           : NULL VALUE
 COMP     .                             :
 WELL     .         01-08               : WELL NAME
 EKB      .M        0.0000              : KELLY BUSHING ELEVATION
 EGL      .M        0.0000              : GROUND LEVEL ELEVATION
 FLD      .                              :
 LOC      . X = 0.0000 Y = 41.0000: WELL LOCATION
 PROV     .                              :
 SRVC     .                              :
 PROV     .                              :
 DATE     .                              :
 UWI      .         Unknown              : UNIQUE WELL ID
 API      .                              :
#
~Curve Information Section
#MNEM     .UNIT               Curve #DESCRIPTION
#-----    -----               ----   --------------
 DEPTH    .M                  : 1     Name = Domain Curve - Type = DEPTH
 RHOB     .g/cc               : 2     Name = Density - Type = Density
 DT       .m/s                : 3     Name = P-wave - Type = P-wave
 DPTM     .ms (Two Way time)  : 4     Name = Depth-time_P-wave_corr_01_08 - Type = Depth-time
~A (ASCII LOG DATA)
# ...
  706.0000          1.9873       3119.4160        604.8711
  707.0000          2.2957       3240.2732        605.4883
  708.0000          2.4556       3431.3809        606.0712
  709.0000          2.4317       3497.2998        606.6430
  710.0000          2.1974       3467.8215        607.2198
  711.0000          2.1291       3262.1194        607.8328
  712.0000          2.3586       3169.0420        608.4639
  713.0000          2.4283       3408.8203        609.0507
  714.0000          2.3138       3436.2229        609.6328
  715.0000          2.0856       3315.5828        610.2359
  716.0000          1.7725       3034.7842        610.8950
  717.0000          1.7484       2962.6843        611.5700
  718.0000          1.7499       2967.2305        612.2441
  719.0000          1.8784       3028.5073        612.9045
  720.0000          2.3227       3027.3032        613.5651
  721.0000          2.4302       3633.2817        614.1155
  722.0000          2.4259       3674.5356        614.6599
  723.0000          2.1168       3585.2476        615.2177
  724.0000          1.8355       3221.6489        615.8385
  725.0000          1.6626       2820.5164        616.5475
  726.0000          1.7625       2986.7478        617.2172
  727.0000          2.0704       3040.1724        617.8751
  728.0000          1.9623       3079.4810        618.5245
  729.0000          1.7568       3065.0520        619.1771
  730.0000          1.8796       3119.9106        619.8181
  731.0000          2.3619       3255.9868        620.4323
  732.0000          2.3903       3467.5474        621.0091
  733.0000          2.3899       3461.4465        621.5869
  734.0000          2.3767       3457.3787        622.1653
  735.0000          1.9547       3475.4421        622.7408
  736.0000          1.7118       3385.3123        623.3316
  737.0000          1.7838       2962.8818        624.0067
  738.0000          1.7011       2927.4614        624.6899
  739.0000          1.5772       2840.2188        625.3940
  740.0000          1.7203       2749.5991        626.1214
  741.0000          1.9211       2908.8291        626.8090
  742.0000          2.0269       3251.2017        627.4241
  743.0000          2.0831       3369.9517        628.0176
  744.0000          1.8123       3361.1799        628.6126
  745.0000          1.5065       3104.7229        629.2568
  746.0000          1.5453       2864.8574        629.9549
  747.0000          1.6280       2960.6270        630.6304
  748.0000          1.5669       3288.1902        631.2387
  749.0000          1.4997       3117.5405        631.8802
  750.0000          1.7998       2987.6006        632.5496
  751.0000          2.0931       3307.7485        633.1543
  752.0000          2.1403       3354.8523        633.7504
  753.0000          1.9697       3366.3386        634.3445
  754.0000          2.0097       3378.6052        634.9365
  755.0000          2.1207       3410.9487        635.5229
  756.0000          2.1207       3382.1155        636.1142
  757.0000          1.8229       3344.1294        636.7123
  758.0000          1.8053       3084.5654        637.3607
  759.0000          2.3064       2955.2266        638.0374
  760.0000          2.4567       3177.2788        638.6669
  761.0000          2.4723       3255.1123        639.2813
  762.0000          2.4829       3328.2524        639.8823
  763.0000          2.4809       3484.0703        640.4562
  764.0000          2.4802       3479.0293        641.0312
  765.0000          2.4628       3422.6152        641.6155
  766.0000          2.4506       3227.8032        642.2351
  767.0000          2.4338       3149.6484        642.8701
  768.0000          2.4221       3165.0767        643.5020
  769.0000          2.4130       3183.4106        644.1302
  770.0000          2.3506       3180.0039        644.7592
  771.0000          2.2219       3193.0024        645.3856
  772.0000          2.0993       3171.0820        646.0163
  773.0000          2.0383       3147.4041        646.6517
  774.0000          1.9929       3126.9629        647.2913
  775.0000          1.9278       3072.3931        647.9423
  776.0000          1.9676       3005.6250        648.6077
  777.0000          1.9295       2963.0991        649.2827
  778.0000          1.9267       2936.1619        649.9638
  779.0000          2.0048       2930.4958        650.6463
  780.0000          2.4636       2999.7925        651.3130
  781.0000          2.4756       3643.9707        651.8619
  782.0000          2.3253       3660.9856        652.4081
  783.0000          2.1396       3492.6382        652.9808
  784.0000          2.1110       3318.0852        653.5836
  785.0000          2.0372       3167.4202        654.2150
  786.0000          2.0704       3073.4758        654.8657
  787.0000          2.0796       3065.4956        655.5181
  788.0000          2.0751       3067.2976        656.1702
  789.0000          2.0225       3148.7964        656.8054
  790.0000          2.0036       3121.7522        657.4460
  791.0000          2.0057       3055.2312        658.1006
  792.0000          1.9866       2999.1541        658.7675
  793.0000          1.9982       2986.1177        659.4372
  794.0000          2.0053       3000.9463        660.1037
  795.0000          1.9995       3073.2107        660.7545
  796.0000          1.9829       3079.5747        661.4039
  797.0000          2.0150       3093.3875        662.0505
  798.0000          2.0295       3131.0322        662.6892
  799.0000          1.9788       3132.9729        663.3276
  800.0000          1.9751       3104.7344        663.9717
  801.0000          2.0413       3094.5537        664.6180
  802.0000          2.1033       3105.2188        665.2621
  803.0000          2.1568       3104.6421        665.9063
  804.0000          2.1884       3195.3945        666.5322
  805.0000          2.2096       3206.4644        667.1559
  806.0000          2.2121       3203.8594        667.7802
  807.0000          2.2397       3138.4810        668.4175
  808.0000          2.2254       3097.5286        669.0632
  809.0000          2.2198       3031.5276        669.7229
  810.0000          2.1680       3005.4167        670.3884
  811.0000          2.0942       3164.7153        671.0203
  812.0000          2.0301       3325.0205        671.6218
  813.0000          1.9902       3401.2720        672.2098
  814.0000          2.0087       3445.0142        672.7904
  815.0000          2.0326       3419.0522        673.3754
  816.0000          2.0892       3325.0693        673.9768
  817.0000          2.1453       3295.3135        674.5837
  818.0000          2.1706       3359.0713        675.1791
  819.0000          2.1200       3458.5232        675.7574
  820.0000          2.1038       3524.5439        676.3249
  821.0000          2.1059       3526.6057        676.8920
  822.0000          2.1278       3553.2058        677.4549
  823.0000          2.2019       3609.8242        678.0089
  824.0000          2.1829       3631.9392        678.5596
  825.0000          2.0849       3614.3145        679.1129
  826.0000          2.0379       3595.1443        679.6693
  827.0000          2.0419       3600.6870        680.2247
  828.0000          1.9888       3597.0386        680.7807
  829.0000          1.9987       3579.0642        681.3395
  830.0000          1.9711       3538.4939        681.9047
  831.0000          1.9861       3546.1819        682.4687
  832.0000          1.9084       3558.7529        683.0307
  833.0000          1.9652       3557.7222        683.5929
  834.0000          1.9861       3566.9023        684.1536
  835.0000          2.0236       3581.7717        684.7120
  836.0000          2.0192       3598.5732        685.2678
  837.0000          1.9856       3615.0254        685.8210
  838.0000          1.9882       3600.3718        686.3765
  839.0000          1.9941       3568.5808        686.9370
  840.0000          2.0458       3553.3105        687.4998
  841.0000          2.1142       3566.9917        688.0605
