~VERSION INFORMATION
 VERS.                          2.0   : CWLS LOG ASCII STANDARD - VERSION 2.0
 WRAP.                          NO    : ONE LINE PER DEPTH STEP
#
~Well Information Section
#MNEM     .UNIT     DATA                DESCRIPTION
#-----    -----     --------            --------------
 STRT     .M        162.0000            : START DEPTH
 STOP     .M        1616.0000           : END DEPTH
 STEP     .M        1.0000              : INCREMENT DEPTH
 NULL     .         -999.2500           : NULL VALUE
 COMP     .                             :
 WELL     .         01-08               : WELL NAME
 EKB      .M        0.0000              : KELLY BUSHING ELEVATION
 EGL      .M        0.0000              : GROUND LEVEL ELEVATION
 FLD      .                              :
 LOC      . X = 0.0000 Y = 41.0000: WELL LOCATION
 PROV     .                              :
 SRVC     .                              :
 PROV     .                              :
 DATE     .                              :
 UWI      .         Unknown              : UNIQUE WELL ID
 API      .                              :
#
~Curve Information Section
#MNEM     .UNIT               Curve #DESCRIPTION
#-----    -----               ----   --------------
 DEPTH    .M                  : 1     Name = Domain Curve - Type = DEPTH
 RHOB     .g/cc               : 2     Name = Density - Type = Density
 DT       .m/s                : 3     Name = P-wave - Type = P-wave
 DPTM     .ms (Two Way time)  : 4     Name = Depth-time_P-wave_corr_01_08 - Type = Depth-time
~A (ASCII LOG DATA)
# ...
 1522.0000          2.5976       4284.2930       1062.8323
 1523.0000          2.6367       4359.1704       1063.3187
 1524.0000          2.6332       4368.7070       1063.8027
 1525.0000          2.6209       4251.4370       1064.2982
 1526.0000          2.5243       4105.8315       1064.8091
 1527.0000          2.3841       3913.6416       1065.3424
 1528.0000          2.4030       3844.0107       1065.8835
 1529.0000          2.4527       4142.2725       1066.3857
 1530.0000          2.4663       4023.7744       1066.9004
 1531.0000          2.4663       4074.2988       1067.4070
 1532.0000          2.5701       4225.8447       1067.8944
 1533.0000          2.6509       4417.9922       1068.3606
 1534.0000          2.6354       4391.8047       1068.8304
 1535.0000          2.6086       4322.8823       1069.3087
 1536.0000          2.6084       4267.5337       1069.7939
 1537.0000          2.6220       4250.0049       1070.2823
 1538.0000          2.5939       4310.9663       1070.7649
 1539.0000          2.5880       4331.1714       1071.2462
 1540.0000          2.6043       4377.4517       1071.7236
 1541.0000          2.6024       4370.6318       1072.2025
 1542.0000          2.5767       4245.4229       1072.6959
 1543.0000          2.5706       4224.4185       1073.1923
 1544.0000          2.5693       4217.8652       1073.6901
 1545.0000          2.5309       3906.6536       1074.2266
 1546.0000          2.4196       3688.8281       1074.7938
 1547.0000          2.4321       3711.0281       1075.3584
 1548.0000          2.4373       3876.5127       1075.9008
 1549.0000          2.5389       4094.1907       1076.4161
 1550.0000          2.5965       4208.3237       1076.9188
 1551.0000          2.5725       4157.6060       1077.4277
 1552.0000          2.4843       3942.2817       1077.9634
 1553.0000          2.4563       3808.8101       1078.5171
 1554.0000          2.4391       3765.5088       1079.0774
 1555.0000          2.3753       3664.5178       1079.6525
 1556.0000          2.3418       3616.2588       1080.2352
 1557.0000          2.3432       3630.5227       1080.8162
 1558.0000          2.3417       3688.7627       1081.3884
 1559.0000          2.3444       3743.8494       1081.9529
 1560.0000          2.3584       3766.3870       1082.5144
 1561.0000          2.3744       3726.4365       1083.0815
 1562.0000          2.3741       3728.5918       1083.6484
 1563.0000          2.3760       3755.4741       1084.2117
 1564.0000          2.4212       3779.4243       1084.7712
 1565.0000          2.4234       3813.2910       1085.3263
 1566.0000          2.3904       3804.0183       1085.8824
 1567.0000          2.3741       3765.2297       1086.4438
 1568.0000          2.3741       3753.0793       1087.0067
 1569.0000          2.3726       3721.6836       1087.5739
 1570.0000          2.3890       3697.2400       1088.1443
 1571.0000          2.4445       3956.3188       1088.6792
 1572.0000          2.5318       4281.7764       1089.1750
 1573.0000          2.5319       4280.1836       1089.6709
 1574.0000          2.5317       4274.3784       1090.1670
 1575.0000          2.5537       4243.8145       1090.6658
 1576.0000          2.5984       4109.6172       1091.1796
 1577.0000          2.6034       4109.5962       1091.6930
 1578.0000          2.5889       4114.9785       1092.2050
 1579.0000          2.6111       4146.6973       1092.7126
 1580.0000          2.6235       4185.5713       1093.2152
 1581.0000          2.6454       4207.0806       1093.7147
 1582.0000          2.6261       4274.0356       1094.2059
 1583.0000          2.2629       4323.5308       1094.6912
 1584.0000          2.1364       4461.4609       1095.1611
 1585.0000          2.4135       4523.6714       1095.6241
 1586.0000          2.5694       4651.4443       1096.0741
 1587.0000          2.6066       4722.4829       1096.5168
 1588.0000          2.6146       4758.3701       1096.9552
 1589.0000          2.6281       4773.2529       1097.3915
 1590.0000          2.6167       4775.1250       1097.8262
 1591.0000          2.5616       4470.6904       1098.2886
 1592.0000          2.5156       4222.1748       1098.7762
 1593.0000          2.4013       4212.6113       1099.2637
 1594.0000          2.4175       4098.4585       1099.7632
 1595.0000          2.4856       4338.7183       1100.2344
 1596.0000          2.5674       4314.7827       1100.7070
 1597.0000          2.5230       4333.3618       1101.1763
 1598.0000          2.4954       4354.6094       1101.6420
 1599.0000          2.6091       6436.0732       1101.9575
 1600.0000          2.7074       6280.9102       1102.2795
 1601.0000          2.7109       6035.4800       1102.6129
 1602.0000          2.7039       5962.5093       1102.9489
 1603.0000          2.7007       6113.8457       1103.2760
 1604.0000          2.6970       6040.7251       1103.6071
 1605.0000          2.6929       5749.8018       1103.9550
 1606.0000          2.6904       5644.3232       1104.3092
 1607.0000          2.6957       5590.2207       1104.6670
 1608.0000          2.7043       5590.2207       1105.0248
 1609.0000          2.7094       -999.2500       1105.3826
 1610.0000          2.7044       -999.2500       1105.7404
 1611.0000          2.6931       -999.2500       1106.0981
 1612.0000          2.6845       -999.2500       1106.4559
 1613.0000          2.6816       -999.2500       1106.8137
 1614.0000          2.6932       -999.2500       -999.2500
 1615.0000          2.6804       -999.2500       -999.2500
 1616.0000          2.6804       -999.2500       -999.2500
