~VERSION INFORMATION
 VERS.                          2.0   : CWLS LOG ASCII STANDARD - VERSION 2.0
 WRAP.                          NO    : ONE LINE PER DEPTH STEP
#
~Well Information Section
#MNEM     .UNIT     DATA                DESCRIPTION
#-----    -----     --------            --------------
 STRT     .M        162.0000            : START DEPTH
 STOP     .M        1616.0000           : END DEPTH
 STEP     .M        1.0000              : INCREMENT DEPTH
 NULL     .         -999.2500           : NULL VALUE
 COMP     .                             :
 WELL     .         01-08               : WELL NAME
 EKB      .M        0.0000              : KELLY BUSHING ELEVATION
 EGL      .M        0.0000              : GROUND LEVEL ELEVATION
 FLD      .                              :
 LOC      . X = 0.0000 Y = 41.0000: WELL LOCATION
 PROV     .                              :
 SRVC     .                              :
 PROV     .                              :
 DATE     .                              :
 UWI      .         Unknown              : UNIQUE WELL ID
 API      .                              :
#
~Curve Information Section
#MNEM     .UNIT               Curve #DESCRIPTION
#-----    -----               ----   --------------
 DEPTH    .M                  : 1     Name = Domain Curve - Type = DEPTH
 RHOB     .g/cc               : 2     Name = Density - Type = Density
 DT       .m/s                : 3     Name = P-wave - Type = P-wave
 DPTM     .ms (Two Way time)  : 4     Name = Depth-time_P-wave_corr_01_08 - Type = Depth-time
~A (ASCII LOG DATA)
# ...
  298.0000          2.2238       3227.6785        340.9183
  299.0000          2.3126       3328.9500        341.5192
  300.0000          2.3844       3367.4583        342.1131
  301.0000          2.3991       3269.4038        342.7248
  302.0000          2.3929       2984.8010        343.3948
  303.0000          2.3756       2892.4692        344.0863
  304.0000          2.3594       2841.7910        344.7901
  305.0000          2.3477       2824.6763        345.4981
  306.0000          2.3526       2835.1191        346.2036
  307.0000          2.3528       2882.0898        346.8975
  308.0000          2.2385       3054.7061        347.5522
  309.0000          2.1730       2856.9341        348.2523
  310.0000          2.1512       2831.0369        348.9587
  311.0000          2.2801       3021.0186        349.6208
  312.0000          2.3270       3090.3313        350.2679
  313.0000          2.3536       3117.3228        350.9095
  314.0000          2.3381       3198.8398        351.5348
  315.0000          2.3153       3290.9634        352.1425
  316.0000          2.3135       3236.1895        352.7605
  317.0000          2.3185       3098.6785        353.4059
  318.0000          2.3238       3065.9265        354.0583
  319.0000          2.3194       3241.3386        354.6753
  320.0000          2.3486       3318.2251        355.2780
  321.0000          2.2516       3274.4341        355.8888
  322.0000          1.8199       3056.1558        356.5432
  323.0000          1.5602       2827.8145        357.2505
  324.0000          1.5561       2850.4744        357.9521
  325.0000          1.5482       2859.7002        358.6515
  326.0000          1.5998       2866.7856        359.3492
  327.0000          1.5665       2826.5000        360.0567
  328.0000          1.6697       2797.4709        360.7717
  329.0000          1.8297       3039.0122        361.4298
  330.0000          2.0736       3305.9873        362.0347
  331.0000          2.1275       3305.1187        362.6399
  332.0000          2.2620       3327.0645        363.2410
  333.0000          2.3186       3305.7830        363.8460
  334.0000          2.3622       3368.8491        364.4397
  335.0000          2.3900       3549.6914        365.0031
  336.0000          2.3585       3580.0142        365.5618
  337.0000          2.2736       3331.0615        366.1622
  338.0000          2.0660       2982.1492        366.8328
  339.0000          1.9157       2865.8086        367.5307
  340.0000          1.9062       2877.7378        368.2257
  341.0000          1.8671       2892.0840        368.9172
  342.0000          1.9261       2900.0605        369.6069
  343.0000          2.0158       2907.5596        370.2947
  344.0000          2.0579       2930.7249        370.9772
  345.0000          2.0432       2912.6519        371.6638
  346.0000          1.9536       2881.5518        372.3579
  347.0000          1.9094       2849.0625        373.0599
  348.0000          1.9684       2921.9902        373.7444
  349.0000          2.2151       2953.8755        374.4214
  350.0000          2.2906       2958.5754        375.0974
  351.0000          2.3189       2944.3115        375.7767
  352.0000          2.3021       2926.6387        376.4601
  353.0000          2.2544       2913.5916        377.1465
  354.0000          2.2363       2919.4805        377.8316
  355.0000          2.2385       2943.5354        378.5110
  356.0000          2.2431       2976.8066        379.1829
  357.0000          2.2981       3005.9580        379.8482
  358.0000          2.3222       3030.1267        380.5083
  359.0000          2.3257       3028.2810        381.1687
  360.0000          2.2802       2996.1060        381.8362
  361.0000          2.1512       2960.8828        382.5117
  362.0000          2.1574       2923.0159        383.1959
  363.0000          2.2533       2948.7734        383.8742
  364.0000          2.3524       3171.4678        384.5048
  365.0000          2.3846       3236.3848        385.1228
  366.0000          2.2479       2999.4824        385.7896
  367.0000          2.1038       2856.8867        386.4896
  368.0000          2.1991       2982.4990        387.1602
  369.0000          2.2609       3062.7522        387.8132
  370.0000          2.2496       3076.8206        388.4633
  371.0000          2.2009       3007.0281        389.1284
  372.0000          2.1583       2939.1389        389.8088
  373.0000          2.1236       2885.7947        390.5019
  374.0000          2.0915       2834.3018        391.2075
  375.0000          2.0293       2815.6223        391.9178
  376.0000          1.9577       2855.9980        392.6181
  377.0000          1.9487       2960.9817        393.2936
  378.0000          1.9941       2960.9817        393.9690
  379.0000          2.0677       2834.0269        394.6747
  380.0000          2.0811       2793.6975        395.3906
  381.0000          2.0816       2805.1406        396.1036
  382.0000          2.0388       2818.5059        396.8132
  383.0000          1.7647       2800.4800        397.5273
  384.0000          1.7368       2852.6760        398.2285
  385.0000          1.7227       2878.1360        398.9233
  386.0000          1.7132       2834.5347        399.6289
  387.0000          1.7173       2817.9907        400.3387
  388.0000          1.7723       2828.6470        401.0457
  389.0000          1.8024       2803.3994        401.7591
  390.0000          1.8368       2776.6536        402.4794
  391.0000          2.1357       2885.1240        403.1726
  392.0000          2.3026       3028.4395        403.8330
  393.0000          2.3386       3072.2063        404.4840
  394.0000          2.2758       3039.5159        405.1420
  395.0000          2.1643       2939.1414        405.8225
  396.0000          2.0328       2844.8018        406.5255
  397.0000          2.1667       2835.6416        407.2309
  398.0000          2.2339       2841.4878        407.9347
  399.0000          2.2046       2839.6531        408.6390
  400.0000          2.1982       2819.5571        409.3484
  401.0000          2.1785       2809.8950        410.0601
  402.0000          2.2298       2812.9912        410.7711
  403.0000          2.1870       2819.2004        411.4805
  404.0000          2.2235       2808.9312        412.1925
  405.0000          2.1958       2789.4365        412.9095
  406.0000          2.2527       2789.7119        413.6265
  407.0000          2.1757       2771.5728        414.3481
  408.0000          2.0695       2812.5356        415.0592
  409.0000          1.9906       2844.9546        415.7622
  410.0000          2.1190       2931.8245        416.4443
  411.0000          2.0995       2921.7241        417.1289
  412.0000          2.1993       2941.5483        417.8088
  413.0000          2.3696       3019.4441        418.4712
  414.0000          2.3829       3049.2749        419.1270
  415.0000          2.3823       3036.8198        419.7856
  416.0000          2.3784       3019.0054        420.4481
  417.0000          2.3655       2984.5566        421.1182
  418.0000          2.2446       2949.9326        421.7962
  419.0000          2.1950       2933.3186        422.4780
  420.0000          2.3382       2910.2759        423.1652
  421.0000          2.3994       2910.3540        423.8524
  422.0000          2.3907       2901.7910        424.5417
  423.0000          2.3763       2887.5532        425.2343
  424.0000          2.3328       2885.0759        425.9275
  425.0000          2.2522       2853.1096        426.6285
  426.0000          2.1441       2871.0225        427.3251
  427.0000          2.0295       2868.5569        428.0223
  428.0000          1.9309       2875.6445        428.7178
  429.0000          1.9211       2863.8071        429.4162
  430.0000          2.1183       2862.1914        430.1150
  431.0000          2.2728       2845.5103        430.8178
  432.0000          2.3021       2786.7295        431.5355
  433.0000          2.2840       2773.6074        432.2566
