~VERSION INFORMATION
 VERS.                          2.0   : CWLS LOG ASCII STANDARD - VERSION 2.0
 WRAP.                          NO    : ONE LINE PER DEPTH STEP
#
~Well Information Section
#MNEM     .UNIT     DATA                DESCRIPTION
#-----    -----     --------            --------------
 STRT     .M        162.0000            : START DEPTH
 STOP     .M        1616.0000           : END DEPTH
 STEP     .M        1.0000              : INCREMENT DEPTH
 NULL     .         -999.2500           : NULL VALUE
 COMP     .                             :
 WELL     .         01-08               : WELL NAME
 EKB      .M        0.0000              : KELLY BUSHING ELEVATION
 EGL      .M        0.0000              : GROUND LEVEL ELEVATION
 FLD      .                              :
 LOC      . X = 0.0000 Y = 41.0000: WELL LOCATION
 PROV     .                              :
 SRVC     .                              :
 PROV     .                              :
 DATE     .                              :
 UWI      .         Unknown              : UNIQUE WELL ID
 API      .                              :
#
~Curve Information Section
#MNEM     .UNIT               Curve #DESCRIPTION
#-----    -----               ----   --------------
 DEPTH    .M                  : 1     Name = Domain Curve - Type = DEPTH
 RHOB     .g/cc               : 2     Name = Density - Type = Density
 DT       .m/s                : 3     Name = P-wave - Type = P-wave
 DPTM     .ms (Two Way time)  : 4     Name = Depth-time_P-wave_corr_01_08 - Type = Depth-time
~A (ASCII LOG DATA)
# ...
 1114.0000          2.3742       3576.7708        844.5090
 1115.0000          2.3910       3590.4941        845.0661
 1116.0000          2.4115       3599.5364        845.6217
 1117.0000          2.4383       3608.2847        846.1760
 1118.0000          2.4647       3593.9980        846.7325
 1119.0000          2.4721       3590.9856        847.2894
 1120.0000          2.4719       3601.3811        847.8448
 1121.0000          2.4645       3666.8831        848.3902
 1122.0000          2.4744       3752.8369        848.9231
 1123.0000          2.4781       3876.7512        849.4390
 1124.0000          2.4764       3936.4780        849.9471
 1125.0000          2.3953       3921.8340        850.4570
 1126.0000          2.2798       3828.0242        850.9795
 1127.0000          2.2372       3770.1980        851.5100
 1128.0000          2.2470       3731.0864        852.0460
 1129.0000          2.2443       3703.0247        852.5861
 1130.0000          2.2870       3669.7358        853.1311
 1131.0000          2.3441       3601.1375        853.6865
 1132.0000          2.3391       3550.8757        854.2498
 1133.0000          2.3304       3528.8760        854.8165
 1134.0000          2.3075       3518.5735        855.3849
 1135.0000          2.2698       3567.4075        855.9456
 1136.0000          2.2390       3628.9343        856.4966
 1137.0000          2.2640       3625.8296        857.0483
 1138.0000          2.2841       3573.9419        857.6078
 1139.0000          2.3592       3599.0681        858.1636
 1140.0000          2.3887       3694.3096        858.7050
 1141.0000          2.3928       3788.6387        859.2328
 1142.0000          2.3699       3810.9187        859.7576
 1143.0000          2.3173       3773.9192        860.2876
 1144.0000          2.2677       3679.8284        860.8311
 1145.0000          2.2646       3607.4617        861.3855
 1146.0000          2.3470       3671.4604        861.9302
 1147.0000          2.3837       3673.7175        862.4747
 1148.0000          2.4050       3675.4185        863.0188
 1149.0000          2.4283       3668.9119        863.5639
 1150.0000          2.4350       3689.9553        864.1060
 1151.0000          2.4170       3700.5745        864.6464
 1152.0000          2.3948       3691.3921        865.1882
 1153.0000          2.3937       3727.1643        865.7248
 1154.0000          2.4345       3689.8784        866.2668
 1155.0000          2.4912       3720.2180        866.8044
 1156.0000          2.4781       3721.5874        867.3419
 1157.0000          2.4568       3758.7366        867.8739
 1158.0000          2.4285       3757.5593        868.4062
 1159.0000          2.4256       3746.5151        868.9400
 1160.0000          2.4083       3711.8408        869.4788
 1161.0000          2.4072       3681.3218        870.0221
 1162.0000          2.4193       3715.9937        870.5603
 1163.0000          2.4753       3776.9963        871.0898
 1164.0000          2.4919       3801.0056        871.6160
 1165.0000          2.4924       3763.5288        872.1475
 1166.0000          2.4829       3741.5911        872.6819
 1167.0000          2.4308       3676.6995        873.2260
 1168.0000          2.4037       3519.4744        873.7942
 1169.0000          2.3794       3478.6106        874.3691
 1170.0000          2.3781       3479.2366        874.9440
 1171.0000          2.4190       3588.4136        875.5013
 1172.0000          2.4806       3648.6387        876.0495
 1173.0000          2.4794       3642.9717        876.5985
 1174.0000          2.4681       3577.0317        877.1576
 1175.0000          2.4518       3483.1602        877.7318
 1176.0000          2.4247       3419.3591        878.3167
 1177.0000          2.4087       3395.5049        878.9057
 1178.0000          2.3771       3390.7917        879.4955
 1179.0000          2.3680       3381.8481        880.0870
 1180.0000          2.3883       3364.6082        880.6814
 1181.0000          2.4220       3370.3208        881.2748
 1182.0000          2.4337       3396.5352        881.8636
 1183.0000          2.4317       3413.0774        882.4496
 1184.0000          2.4249       3421.6257        883.0341
 1185.0000          2.4365       3428.6152        883.6174
 1186.0000          2.4574       3439.9026        884.1989
 1187.0000          2.4471       3472.4180        884.7748
 1188.0000          2.3681       3467.7708        885.3516
 1189.0000          2.3550       3350.4109        885.9485
 1190.0000          2.3817       3321.0645        886.5507
 1191.0000          2.4032       3341.6904        887.1492
 1192.0000          2.4028       3358.6240        887.7447
 1193.0000          2.4043       3357.6941        888.3403
 1194.0000          2.3454       3343.3462        888.9385
 1195.0000          2.3071       3320.0303        889.5410
 1196.0000          2.3212       3316.5452        890.1440
 1197.0000          2.3821       3325.6809        890.7454
 1198.0000          2.4069       3356.4089        891.3412
 1199.0000          2.4660       3451.8745        891.9207
 1200.0000          2.5112       3574.4944        892.4802
 1201.0000          2.5502       3599.8069        893.0358
 1202.0000          2.5694       3657.1851        893.5826
 1203.0000          2.5749       3707.5896        894.1196
 1204.0000          2.5708       3700.5334        894.6528
 1205.0000          2.5623       3680.9404        895.1842
 1206.0000          2.5607       3688.2729        895.7098
 1207.0000          2.5700       3708.3276        896.2280
 1208.0000          2.5719       3709.1475        896.7415
 1209.0000          2.5544       3671.9844        897.2561
 1210.0000          2.5424       3622.8220        897.7737
 1211.0000          2.5460       3566.1323        898.2959
 1212.0000          2.5447       3520.2131        898.8213
 1213.0000          2.5294       3439.7444        899.3558
 1214.0000          2.5251       3436.6448        899.8869
 1215.0000          2.5291       3449.7979        900.4119
 1216.0000          2.5421       3487.3198        900.9268
 1217.0000          2.5579       3530.3284        901.4310
 1218.0000          2.5760       3663.4773        901.9109
 1219.0000          2.5762       3688.4006        902.3835
 1220.0000          2.5711       3695.9375        902.8516
 1221.0000          2.5610       3651.4717        903.3228
 1222.0000          2.5563       3623.6926        903.7949
 1223.0000          2.5367       3619.3665        904.2643
 1224.0000          2.5168       3618.7192        904.7307
 1225.0000          2.5176       3574.3074        905.2009
 1226.0000          2.5374       3581.6650        905.6669
 1227.0000          2.5401       3596.5117        906.1277
 1228.0000          2.5238       3596.5117        906.5857
 1229.0000          2.4952       3478.0557        907.0598
 1230.0000          2.4836       3381.6838        907.5476
 1231.0000          2.4850       3393.5120        908.0308
 1232.0000          2.4793       3486.4060        908.4958
 1233.0000          2.4780       3581.5283        908.9431
 1234.0000          2.4794       3639.5552        909.3791
 1235.0000          2.4786       3655.3037        909.8105
 1236.0000          2.4927       3711.7305        910.2314
 1237.0000          2.5189       3788.2090        910.6393
 1238.0000          2.5282       3844.2571        911.0375
 1239.0000          2.5442       3860.2642        911.4317
 1240.0000          2.4870       3841.7263        911.8264
 1241.0000          2.4168       3697.4504        912.2397
 1242.0000          2.3943       3631.6880        912.6611
 1243.0000          2.4457       3664.5713        913.0759
 1244.0000          2.4557       3681.4521        913.4867
 1245.0000          2.4557       3689.7476        913.8948
 1246.0000          2.4941       3733.8723        914.2952
 1247.0000          2.5449       3840.6584        914.6794
 1248.0000          2.5410       3849.3237        915.0612
 1249.0000          2.4914       3716.8611        915.4604
