~VERSION INFORMATION
 VERS.                          2.0   : CWLS LOG ASCII STANDARD - VERSION 2.0
 WRAP.                          NO    : ONE LINE PER DEPTH STEP
#
~Well Information Section
#MNEM     .UNIT     DATA                DESCRIPTION
#-----    -----     --------            --------------
 STRT     .M        162.0000            : START DEPTH
 STOP     .M        1616.0000           : END DEPTH
 STEP     .M        1.0000              : INCREMENT DEPTH
 NULL     .         -999.2500           : NULL VALUE
 COMP     .                             :
 WELL     .         01-08               : WELL NAME
 EKB      .M        0.0000              : KELLY BUSHING ELEVATION
 EGL      .M        0.0000              : GROUND LEVEL ELEVATION
 FLD      .                              :
 LOC      . X = 0.0000 Y = 41.0000: WELL LOCATION
 PROV     .                              :
 SRVC     .                              :
 PROV     .                              :
 DATE     .                              :
 UWI      .         Unknown              : UNIQUE WELL ID
 API      .                              :
#
~Curve Information Section
#MNEM     .UNIT               Curve #DESCRIPTION
#-----    -----               ----   --------------
 DEPTH    .M                  : 1     Name = Domain Curve - Type = DEPTH
 RHOB     .g/cc               : 2     Name = Density - Type = Density
 DT       .m/s                : 3     Name = P-wave - Type = P-wave
 DPTM     .ms (Two Way time)  : 4     Name = Depth-time_P-wave_corr_01_08 - Type = Depth-time
~A (ASCII LOG DATA)
  162.0000          2.1160       3251.0488        249.5385
  163.0000          2.1801       3342.7156        250.1368
  164.0000          2.3053       3374.9426        250.7294
  165.0000          2.3857       3395.7563        251.3184
  166.0000          2.3486       3363.1904        251.9131
  167.0000          2.3181       3225.3171        252.5332
  168.0000          2.2951       3205.7559        253.1570
  169.0000          2.2484       3167.4126        253.7885
  170.0000          2.2219       3216.3206        254.4103
  171.0000          2.2156       3201.8313        255.0349
  172.0000          2.2007       3195.0957        255.6609
  173.0000          2.1417       3075.5024        256.3112
  174.0000          1.8060       2802.1267        257.0249
  175.0000          1.9444       2859.8916        257.7243
  176.0000          2.2657       3023.0801        258.3859
  177.0000          2.2790       3028.0095        259.0464
  178.0000          2.1764       2994.5454        259.7142
  179.0000          2.0728       3001.8794        260.3805
  180.0000          2.1059       3055.0620        261.0351
  181.0000          1.9714       2987.7102        261.7045
  182.0000          1.8849       2989.5305        262.3735
  183.0000          1.8061       2563.8547        263.1536
  184.0000          1.8829       2804.6636        263.8667
  185.0000          2.1857       3040.2717        264.5245
  186.0000          2.4281       3343.9976        265.1226
  187.0000          2.4441       3393.6426        265.7120
  188.0000          2.4331       3394.2642        266.3012
  189.0000          2.3700       3275.2966        266.9118
  190.0000          2.1256       2906.2324        267.6000
  191.0000          2.1480       3060.5037        268.2535
  192.0000          2.2860       3173.5581        268.8837
  193.0000          2.1363       2528.0493        269.6748
  194.0000          1.4833       2162.9021        270.5995
  195.0000          1.4599       2196.2461        271.5102
  196.0000          1.9594       2395.1636        272.3452
  197.0000          2.0308       2690.7046        273.0885
  198.0000          1.8320       2735.8491        273.8195
  199.0000          1.7904       2832.6606        274.5256
  200.0000          1.9001       2943.2063        275.2051
  201.0000          1.8884       3011.1270        275.8693
  202.0000          1.8362       2981.8142        276.5400
  203.0000          1.7908       2857.1287        277.2400
  204.0000          1.7970       2757.7368        277.9653
  205.0000          1.9495       2644.6606        278.7215
  206.0000          1.8378       2742.3716        279.4508
  207.0000          1.8053       2801.9741        280.1646
  208.0000          1.7566       2792.4363        280.8808
  209.0000          1.7219       2740.6458        281.6105
  210.0000          1.6371       2558.3755        282.3923
  211.0000          1.5760       2407.9751        283.2229
  212.0000          1.7661       2756.6582        283.9484
  213.0000          2.2882       2954.4692        284.6253
  214.0000          2.3613       3115.0168        285.2674
  215.0000          2.0961       2970.1638        285.9407
  216.0000          1.8245       2797.3945        286.6557
  217.0000          1.9303       3260.2424        287.2692
  218.0000          2.1871       3473.8237        287.8449
  219.0000          2.3419       3500.5618        288.4162
  220.0000          2.3329       3500.1838        288.9876
  221.0000          2.2294       3437.7034        289.5694
  222.0000          1.9914       2993.3953        290.2375
  223.0000          1.7418       2755.6743        290.9633
  224.0000          1.6997       2776.0737        291.6837
  225.0000          1.6681       2670.7988        292.4326
  226.0000          1.6694       2657.2622        293.1852
  227.0000          1.6823       2725.0884        293.9192
  228.0000          1.7469       2879.6279        294.6137
  229.0000          1.7558       2949.4419        295.2918
  230.0000          1.7371       2876.8950        295.9870
  231.0000          1.7687       2843.5591        296.6903
  232.0000          1.9040       2999.9119        297.3570
  233.0000          2.2040       3334.7705        297.9568
  234.0000          2.2727       3384.2920        298.5477
  235.0000          2.2407       3298.7639        299.1540
  236.0000          2.1442       3202.7749        299.7785
  237.0000          2.2346       3406.7910        300.3655
  238.0000          2.3826       3505.4031        300.9361
  239.0000          2.3919       3443.5867        301.5169
  240.0000          2.3038       3294.1963        302.1240
  241.0000          2.1776       3189.6812        302.7510
  242.0000          2.1567       3200.5405        303.3759
  243.0000          1.9852       3167.9373        304.0073
  244.0000          1.8294       2800.2708        304.7215
  245.0000          1.9805       2755.6724        305.4472
  246.0000          2.0451       2948.1931        306.1256
  247.0000          1.9220       2950.4355        306.8035
  248.0000          1.8873       2940.7239        307.4836
  249.0000          2.1435       3195.9189        308.1094
  250.0000          2.3693       3321.5391        308.7115
  251.0000          2.4052       3337.4441        309.3108
  252.0000          2.4083       3354.4434        309.9070
  253.0000          2.4060       3376.0981        310.4994
  254.0000          2.4043       3438.9932        311.0810
  255.0000          2.3870       3454.3401        311.6600
  256.0000          2.3938       3491.8967        312.2327
  257.0000          2.1995       3279.6355        312.8425
  258.0000          1.8684       2993.0364        313.5107
  259.0000          1.6996       2826.0723        314.2184
  260.0000          1.6352       2787.4624        314.9359
  261.0000          1.7064       2859.6572        315.6353
  262.0000          1.7213       2865.8225        316.3332
  263.0000          1.8001       2983.0112        317.0037
  264.0000          1.7638       2795.2283        317.7192
  265.0000          1.6596       2630.3037        318.4796
  266.0000          1.6499       2604.7158        319.2474
  267.0000          1.8278       2810.8311        319.9589
  268.0000          1.9746       2948.6169        320.6372
  269.0000          1.9662       2705.0732        321.3766
  270.0000          1.5882       2486.5049        322.1809
  271.0000          1.5014       2488.9595        322.9844
  272.0000          1.9285       2872.8081        323.6806
  273.0000          2.1900       3356.1702        324.2766
  274.0000          2.1684       3297.8730        324.8830
  275.0000          1.7278       2504.6990        325.6815
  276.0000          1.6475       2458.2729        326.4951
  277.0000          1.6265       2587.2219        327.2681
  278.0000          1.7349       2731.9443        328.0002
  279.0000          1.9543       2886.3193        328.6931
  280.0000          1.9719       2909.1343        329.3806
  281.0000          2.0265       2956.8574        330.0570
  282.0000          1.8347       2823.3838        330.7654
  283.0000          1.7788       2887.1333        331.4581
  284.0000          1.9344       3023.2375        332.1196
  285.0000          2.1213       3181.7771        332.7482
  286.0000          2.4260       3452.9744        333.3274
  287.0000          2.4839       3510.3992        333.8972
  288.0000          2.2695       3312.8657        334.5009
  289.0000          1.8471       2973.5146        335.1735
  290.0000          1.8335       2860.2915        335.8727
  291.0000          1.9045       3040.8438        336.5304
  292.0000          1.9806       3043.3413        337.1876
  293.0000          2.0578       3090.9905        337.8346
  294.0000          2.2393       3226.0315        338.4546
  295.0000          2.2408       3324.2288        339.0562
  296.0000          2.2292       3217.8542        339.6777
  297.0000          2.2164       3220.8193        340.2987
