~VERSION INFORMATION
 VERS.                          2.0   : CWLS LOG ASCII STANDARD - VERSION 2.0
 WRAP.                          NO    : ONE LINE PER DEPTH STEP
#
~Well Information Section
#MNEM     .UNIT     DATA                DESCRIPTION
#-----    -----     --------            --------------
 STRT     .M        162.0000            : START DEPTH
 STOP     .M        1616.0000           : END DEPTH
 STEP     .M        1.0000              : INCREMENT DEPTH
 NULL     .         -999.2500           : NULL VALUE
 COMP     .                             :
 WELL     .         01-08               : WELL NAME
 EKB      .M        0.0000              : KELLY BUSHING ELEVATION
 EGL      .M        0.0000              : GROUND LEVEL ELEVATION
 FLD      .                              :
 LOC      . X = 0.0000 Y = 41.0000: WELL LOCATION
 PROV     .                              :
 SRVC     .                              :
 PROV     .                              :
 DATE     .                              :
 UWI      .         Unknown              : UNIQUE WELL ID
 API      .                              :
#
~Curve Information Section
#MNEM     .UNIT               Curve #DESCRIPTION
#-----    -----               ----   --------------
 DEPTH    .M                  : 1     Name = Domain Curve - Type = DEPTH
 RHOB     .g/cc               : 2     Name = Density - Type = Density
 DT       .m/s                : 3     Name = P-wave - Type = P-wave
 DPTM     .ms (Two Way time)  : 4     Name = Depth-time_P-wave_corr_01_08 - Type = Depth-time
~A (ASCII LOG DATA)
# ...
  842.0000          2.1742       3588.9204        688.6177
  843.0000          2.1873       3607.3289        689.1722
  844.0000          2.1991       3595.4216        689.7285
  845.0000          2.1828       3592.9412        690.2851
  846.0000          2.1687       3581.5586        690.8435
  847.0000          2.1192       3582.7515        691.4017
  848.0000          2.1103       3552.9624        691.9647
  849.0000          2.1148       3564.2070        692.5258
  850.0000          2.1404       3633.2302        693.0762
  851.0000          2.1335       3681.7595        693.6194
  852.0000          2.1172       3682.7588        694.1625
  853.0000          2.1444       3692.6685        694.7042
  854.0000          2.1515       3680.9031        695.2475
  855.0000          2.1670       3625.4905        695.7991
  856.0000          2.1373       3575.3650        696.3585
  857.0000          2.1467       3540.3770        696.9235
  858.0000          2.1488       3511.4128        697.4930
  859.0000          2.1377       3468.8794        698.0696
  860.0000          2.1470       3481.7317        698.6440
  861.0000          2.1196       3559.2891        699.2059
  862.0000          2.1124       3668.9575        699.7510
  863.0000          2.1258       3655.6194        700.2982
  864.0000          2.2191       3604.7454        700.8530
  865.0000          2.2710       3626.3740        701.4045
  866.0000          2.2733       3685.5217        701.9471
  867.0000          2.2759       3703.4922        702.4872
  868.0000          2.3156       3735.3730        703.0226
  869.0000          2.3384       3785.8071        703.5508
  870.0000          2.2804       3805.6812        704.0764
  871.0000          2.1925       3760.4014        704.6083
  872.0000          2.1090       3706.4951        705.1478
  873.0000          2.0592       3686.7710        705.6903
  874.0000          2.0405       3626.9841        706.2418
  875.0000          1.9743       3605.0742        706.7965
  876.0000          1.9328       3556.4084        707.3589
  877.0000          1.8869       3535.4963        707.9246
  878.0000          1.9111       3532.6194        708.4907
  879.0000          1.9367       3550.3074        709.0541
  880.0000          1.9373       3595.3860        709.6104
  881.0000          1.9333       3580.2617        710.1689
  882.0000          1.9365       3524.3115        710.7365
  883.0000          1.9554       3494.8496        711.3087
  884.0000          1.9622       3555.7607        711.8712
  885.0000          2.0066       3560.0906        712.4330
  886.0000          2.0093       3599.7900        712.9885
  887.0000          2.0375       3551.2910        713.5518
  888.0000          2.0368       3542.6528        714.1163
  889.0000          2.0330       3533.7346        714.6823
  890.0000          2.0223       3507.0618        715.2525
  891.0000          2.0128       3496.8274        715.8245
  892.0000          2.0533       3450.2126        716.4042
  893.0000          2.2730       3437.3298        716.9860
  894.0000          2.3754       3486.3271        717.5597
  895.0000          2.3800       3556.9070        718.1219
  896.0000          2.3778       3541.5461        718.6867
  897.0000          2.3472       3492.1177        719.2594
  898.0000          2.3601       3476.0303        719.8348
  899.0000          2.3800       3460.7146        720.4127
  900.0000          2.4364       3454.0686        720.9917
  901.0000          2.4890       3453.1458        721.5709
  902.0000          2.5001       3461.7813        722.1486
  903.0000          2.5251       3514.0986        722.7178
  904.0000          2.5019       3541.9492        723.2824
  905.0000          2.5319       3580.1890        723.8411
  906.0000          2.5384       3618.5574        724.3937
  907.0000          2.5503       3662.8787        724.9398
  908.0000          2.5552       3663.6936        725.4857
  909.0000          2.5636       3642.3853        726.0348
  910.0000          2.5596       3644.3259        726.5836
  911.0000          2.5523       3693.4592        727.1251
  912.0000          2.5450       3721.1370        727.6625
  913.0000          2.5380       3716.9651        728.2006
  914.0000          2.5411       3633.6680        728.7510
  915.0000          2.5427       3496.9915        729.3229
  916.0000          2.5422       3476.1814        729.8983
  917.0000          2.5270       3457.3699        730.4767
  918.0000          2.5067       3458.4407        731.0551
  919.0000          2.5024       3436.9741        731.6370
  920.0000          2.4699       3389.9883        732.2269
  921.0000          2.4289       3362.7307        732.8217
  922.0000          2.3995       3352.8079        733.4182
  923.0000          2.4019       3363.4531        734.0128
  924.0000          2.4558       3421.1528        734.5974
  925.0000          2.4659       3523.1355        735.1651
  926.0000          2.4598       3504.0808        735.7358
  927.0000          2.4529       3475.5020        736.3113
  928.0000          2.4231       3507.0249        736.8816
  929.0000          2.3940       3533.3325        737.4476
  930.0000          2.3833       3570.9478        738.0077
  931.0000          2.3312       3543.7795        738.5721
  932.0000          2.3404       3540.6423        739.1370
  933.0000          2.3120       3467.0093        739.7138
  934.0000          2.2806       3403.6909        740.3014
  935.0000          2.2610       3341.3667        740.9000
  936.0000          2.2644       3324.6631        741.5015
  937.0000          2.2857       3323.0237        742.1034
  938.0000          2.3210       3329.4412        742.7041
  939.0000          2.3704       3334.5435        743.3039
  940.0000          2.4231       3478.9460        743.8788
  941.0000          2.4975       3750.3755        744.4120
  942.0000          2.5311       3779.1733        744.9413
  943.0000          2.5048       3762.0945        745.4729
  944.0000          2.4499       3677.5254        746.0167
  945.0000          2.3815       3548.3992        746.5804
  946.0000          2.3489       3499.6255        747.1519
  947.0000          2.3378       3429.8086        747.7350
  948.0000          2.3389       3383.4961        748.3261
  949.0000          2.3347       3334.6438        748.9258
  950.0000          2.3317       3345.5110        749.5237
  951.0000          2.3484       3462.5264        750.1013
  952.0000          2.4167       3528.7437        750.6680
  953.0000          2.4085       3523.4824        751.2357
  954.0000          2.3858       3530.8013        751.8021
  955.0000          2.3155       3510.0942        752.3719
  956.0000          2.2223       3510.1887        752.9417
  957.0000          2.2147       3569.0171        753.5021
  958.0000          2.2727       3656.7700        754.0490
  959.0000          2.3916       3662.7314        754.5950
  960.0000          2.3537       3629.2803        755.1461
  961.0000          2.3270       3591.4429        755.7029
  962.0000          2.2953       3558.8572        756.2650
  963.0000          2.2902       3527.4058        756.8319
  964.0000          2.1339       3503.3096        757.4028
  965.0000          2.1165       3503.1274        757.9738
  966.0000          2.1291       3616.6628        758.5267
  967.0000          2.1342       3599.6909        759.0823
  968.0000          2.0892       3538.3337        759.6476
  969.0000          2.0566       3542.5298        760.2122
  970.0000          2.0750       3541.2161        760.7769
  971.0000          2.1306       3541.8525        761.3416
  972.0000          2.1773       3580.6487        761.9001
  973.0000          2.1778       3605.6157        762.4548
  974.0000          2.1441       3589.3015        763.0121
  975.0000          2.1422       3586.1292        763.5698
  976.0000          2.0769       3586.2590        764.1274
  977.0000          2.0764       3560.1667        764.6892
