~VERSION INFORMATION
 VERS.                          2.0   : CWLS LOG ASCII STANDARD - VERSION 2.0
 WRAP.                          NO    : ONE LINE PER DEPTH STEP
#
~Well Information Section
#MNEM     .UNIT     DATA                DESCRIPTION
#-----    -----     --------            --------------
 STRT     .M        162.0000            : START DEPTH
 STOP     .M        1616.0000           : END DEPTH
 STEP     .M        1.0000              : INCREMENT DEPTH
 NULL     .         -999.2500           : NULL VALUE
 COMP     .                             :
 WELL     .         01-08               : WELL NAME
 EKB      .M        0.0000              : KELLY BUSHING ELEVATION
 EGL      .M        0.0000              : GROUND LEVEL ELEVATION
 FLD      .                              :
 LOC      . X = 0.0000 Y = 41.0000: WELL LOCATION
 PROV     .                              :
 SRVC     .                              :
 PROV     .                              :
 DATE     .                              :
 UWI      .         Unknown              : UNIQUE WELL ID
 API      .                              :
#
~Curve Information Section
#MNEM     .UNIT               Curve #DESCRIPTION
#-----    -----               ----   --------------
 DEPTH    .M                  : 1     Name = Domain Curve - Type = DEPTH
 RHOB     .g/cc               : 2     Name = Density - Type = Density
 DT       .m/s                : 3     Name = P-wave - Type = P-wave
 DPTM     .ms (Two Way time)  : 4     Name = Depth-time_P-wave_corr_01_08 - Type = Depth-time
~A (ASCII LOG DATA)
# ...
  570.0000          2.4055       3418.8599        520.6055
  571.0000          2.3955       3325.4954        521.2069
  572.0000          2.4041       3274.6963        521.8177
  573.0000          2.4252       3284.3005        522.4266
  574.0000          2.4477       3314.3264        523.0301
  575.0000          2.4044       3309.4902        523.6343
  576.0000          2.3393       3161.7798        524.2669
  577.0000          2.3272       3136.5217        524.9046
  578.0000          2.3197       3139.8130        525.5416
  579.0000          2.3102       3131.7314        526.1802
  580.0000          2.1830       2995.0347        526.8480
  581.0000          1.5707       2628.9216        527.6087
  582.0000          1.4519       2574.9937        528.3854
  583.0000          1.5287       2770.8228        529.1072
  584.0000          1.6640       2914.6396        529.7934
  585.0000          1.6830       3049.7754        530.4492
  586.0000          1.7340       3327.7605        531.0502
  587.0000          1.6926       3128.5171        531.6895
  588.0000          1.9397       3124.8486        532.3295
  589.0000          2.1824       3141.5356        532.9661
  590.0000          2.3073       3244.0935        533.5827
  591.0000          2.3464       3368.5586        534.1764
  592.0000          2.2124       3333.9585        534.7763
  593.0000          2.1611       3268.2720        535.3882
  594.0000          2.2541       3255.3245        536.0026
  595.0000          2.3843       3316.5547        536.6057
  596.0000          2.4454       3402.2698        537.1935
  597.0000          2.4922       3449.8203        537.7733
  598.0000          2.4743       3656.9004        538.3201
  599.0000          2.2848       3574.9692        538.8796
  600.0000          1.9861       3189.8872        539.5065
  601.0000          1.7635       2966.2161        540.1808
  602.0000          1.7139       2922.1506        540.8653
  603.0000          1.8170       2997.1001        541.5325
  604.0000          1.9218       3109.5132        542.1757
  605.0000          1.8914       3092.0596        542.8226
  606.0000          1.8532       2997.3765        543.4898
  607.0000          1.8992       2989.6938        544.1588
  608.0000          2.2162       3180.7651        544.7875
  609.0000          2.4323       3318.6521        545.3902
  610.0000          2.3381       3359.2261        545.9856
  611.0000          2.0562       3149.2942        546.6207
  612.0000          1.9133       3050.4268        547.2763
  613.0000          1.8123       3137.2810        547.9138
  614.0000          1.7149       3187.7834        548.5412
  615.0000          1.7031       3128.8303        549.1804
  616.0000          1.7305       2895.6646        549.8711
  617.0000          1.7978       2879.1440        550.5657
  618.0000          1.7511       2860.3284        551.2650
  619.0000          1.8324       2840.6333        551.9691
  620.0000          1.8481       3045.4529        552.6258
  621.0000          2.0109       3090.3425        553.2729
  622.0000          2.2197       3210.7224        553.8958
  623.0000          2.2640       3597.5630        554.4518
  624.0000          2.1542       3690.6255        554.9937
  625.0000          1.9631       3459.6545        555.5718
  626.0000          2.0817       3172.5771        556.2022
  627.0000          2.2458       3093.1348        556.8488
  628.0000          2.2840       3153.9761        557.4829
  629.0000          2.2926       3233.9470        558.1014
  630.0000          2.3889       3278.7429        558.7114
  631.0000          2.4396       3314.2764        559.3148
  632.0000          2.4469       3500.8228        559.8860
  633.0000          2.2707       3813.0215        560.4106
  634.0000          2.1476       3556.8838        560.9728
  635.0000          2.0770       3211.4050        561.5956
  636.0000          2.2181       3194.4568        562.2217
  637.0000          2.2410       3178.5459        562.8510
  638.0000          2.1346       3245.6750        563.4672
  639.0000          1.8920       3169.1580        564.0982
  640.0000          1.9053       3113.4272        564.7407
  641.0000          2.3070       3099.5120        565.3859
  642.0000          2.4898       3204.5728        566.0100
  643.0000          2.5336       3618.4368        566.5627
  644.0000          2.5008       4007.6028        567.0618
  645.0000          2.4387       3812.1182        567.5864
  646.0000          2.3989       3518.9209        568.1548
  647.0000          1.9201       3497.8545        568.7266
  648.0000          1.6329       3306.0632        569.3315
  649.0000          1.7539       2901.0410        570.0209
  650.0000          2.3261       3002.5220        570.6870
  651.0000          2.3950       3231.0498        571.3060
  652.0000          2.4059       3301.9517        571.9117
  653.0000          2.4119       3419.7676        572.4965
  654.0000          2.4168       3688.0298        573.0389
  655.0000          2.4197       3593.6423        573.5954
  656.0000          2.4401       3371.0869        574.1887
  657.0000          2.4195       3344.7512        574.7866
  658.0000          2.4289       3386.1807        575.3773
  659.0000          2.4396       3333.5649        575.9772
  660.0000          2.4642       3377.8064        576.5693
  661.0000          2.4653       3410.2556        577.1558
  662.0000          2.4507       3481.2183        577.7303
  663.0000          2.4409       3522.7424        578.2980
  664.0000          2.2637       3511.2195        578.8676
  665.0000          2.0464       3477.9768        579.4427
  666.0000          2.1420       3045.9893        580.0993
  667.0000          2.3686       3074.3462        580.7498
  668.0000          2.4138       3392.6973        581.3393
  669.0000          2.4378       3440.2695        581.9207
  670.0000          2.4649       3496.4072        582.4927
  671.0000          2.4193       3630.5557        583.0436
  672.0000          2.0468       3671.6929        583.5883
  673.0000          1.9039       3360.7268        584.1834
  674.0000          1.8290       3155.3188        584.8172
  675.0000          1.7710       3148.4658        585.4525
  676.0000          1.7654       3177.9885        586.0818
  677.0000          1.8337       3176.5225        586.7114
  678.0000          1.8809       3171.3794        587.3420
  679.0000          1.9814       3163.8047        587.9742
  680.0000          2.0616       3188.1064        588.6015
  681.0000          2.1229       3187.7131        589.2289
  682.0000          2.1505       3170.3762        589.8598
  683.0000          2.3068       3145.8420        590.4955
  684.0000          2.3670       3184.8416        591.1235
  685.0000          2.3844       3217.4409        591.7451
  686.0000          2.3832       3278.0330        592.3553
  687.0000          2.3693       3247.1340        592.9712
  688.0000          2.3622       3243.5894        593.5878
  689.0000          2.3586       3243.5894        594.2044
  690.0000          2.2393       3281.1523        594.8139
  691.0000          2.1026       3287.7769        595.4222
  692.0000          2.0273       3161.8855        596.0547
  693.0000          1.9962       3155.2051        596.6887
  694.0000          2.3188       3237.4338        597.3065
  695.0000          2.4362       3372.6392        597.8994
  696.0000          2.4427       3427.7529        598.4829
  697.0000          2.4140       3465.3022        599.0601
  698.0000          2.2075       3413.9761        599.6459
  699.0000          2.1156       3316.8879        600.2488
  700.0000          2.0782       3238.5195        600.8664
  701.0000          1.9658       3130.4397        601.5053
  702.0000          1.7434       3072.8386        602.1562
  703.0000          1.6249       2938.6699        602.8367
  704.0000          1.6092       2869.3293        603.5338
  705.0000          1.7152       2872.9075        604.2299
