~VERSION INFORMATION
 VERS.                          2.0   : CWLS LOG ASCII STANDARD - VERSION 2.0
 WRAP.                          NO    : ONE LINE PER DEPTH STEP
#
~Well Information Section
#MNEM     .UNIT     DATA                DESCRIPTION
#-----    -----     --------            --------------
 STRT     .M        162.0000            : START DEPTH
 STOP     .M        1616.0000           : END DEPTH
 STEP     .M        1.0000              : INCREMENT DEPTH
 NULL     .         -999.2500           : NULL VALUE
 COMP     .                             :
 WELL     .         01-08               : WELL NAME
 EKB      .M        0.0000              : KELLY BUSHING ELEVATION
 EGL      .M        0.0000              : GROUND LEVEL ELEVATION
 FLD      .                              :
 LOC      . X = 0.0000 Y = 41.0000: WELL LOCATION
 PROV     .                              :
 SRVC     .                              :
 PROV     .                              :
 DATE     .                              :
 UWI      .         Unknown              : UNIQUE WELL ID
 API      .                              :
#
~Curve Information Section
#MNEM     .UNIT               Curve #DESCRIPTION
#-----    -----               ----   --------------
 DEPTH    .M                  : 1     Name = Domain Curve - Type = DEPTH
 RHOB     .g/cc               : 2     Name = Density - Type = Density
 DT       .m/s                : 3     Name = P-wave - Type = P-wave
 DPTM     .ms (Two Way time)  : 4     Name = Depth-time_P-wave_corr_01_08 - Type = Depth-time
~A (ASCII LOG DATA)
# ...
  434.0000          2.2955       2837.1616        432.9615
  435.0000          2.3564       3011.5623        433.6256
  436.0000          2.4095       3025.1624        434.2868
  437.0000          2.3829       2996.2471        434.9543
  438.0000          2.3393       2975.0762        435.6265
  439.0000          2.3026       2948.9448        436.3047
  440.0000          2.3290       2986.9207        436.9743
  441.0000          2.3806       3207.4443        437.5979
  442.0000          2.4030       3224.4016        438.2181
  443.0000          2.3836       3049.2451        438.8740
  444.0000          2.1687       2940.5842        439.5542
  445.0000          2.0564       2880.9355        440.2484
  446.0000          2.0148       2793.8257        440.9643
  447.0000          1.9693       2746.7988        441.6924
  448.0000          1.9378       2690.5386        442.4357
  449.0000          1.9326       2685.0869        443.1806
  450.0000          1.9534       2753.8640        443.9068
  451.0000          2.0397       2893.6873        444.5980
  452.0000          2.0815       2884.4534        445.2914
  453.0000          2.1391       2899.4072        445.9811
  454.0000          2.1418       2898.3970        446.6712
  455.0000          2.1387       2890.0723        447.3632
  456.0000          1.8994       2603.2280        448.1315
  457.0000          1.8232       2586.4907        448.9047
  458.0000          1.9921       3048.2051        449.5609
  459.0000          2.1541       3128.9390        450.2000
  460.0000          2.2092       3099.1094        450.8454
  461.0000          2.0998       2865.8296        451.5433
  462.0000          1.8808       2873.9348        452.2392
  463.0000          1.8354       2918.1538        452.9246
  464.0000          1.8408       2939.9800        453.6048
  465.0000          1.8000       2885.5610        454.2979
  466.0000          1.7867       2699.7603        455.0388
  467.0000          1.7825       2659.8613        455.7906
  468.0000          1.8347       2699.7603        456.5315
  469.0000          1.8305       2448.8477        457.3482
  470.0000          1.6327       2353.7634        458.1979
  471.0000          1.6446       2403.2339        459.0301
  472.0000          1.7487       2688.4302        459.7740
  473.0000          1.8574       3042.4634        460.4314
  474.0000          2.1287       3286.2046        461.0400
  475.0000          2.0957       3099.2319        461.6853
  476.0000          1.8900       2826.7979        462.3928
  477.0000          1.8165       2824.6162        463.1009
  478.0000          1.8047       2783.2837        463.8195
  479.0000          1.7944       2885.1899        464.5127
  480.0000          1.8217       2999.5928        465.1794
  481.0000          1.8604       2987.9985        465.8488
  482.0000          1.8667       2956.3318        466.5253
  483.0000          1.8721       2937.1279        467.2062
  484.0000          1.8294       2940.8877        467.8863
  485.0000          1.9986       2940.8877        468.5663
  486.0000          1.8388       3037.3972        469.2248
  487.0000          1.8677       3085.9214        469.8729
  488.0000          1.8648       3090.5547        470.5201
  489.0000          1.9160       3056.3716        471.1744
  490.0000          1.9857       3099.4382        471.8197
  491.0000          2.1117       3235.2124        472.4379
  492.0000          2.0948       3235.2124        473.0561
  493.0000          2.0827       3155.9946        473.6898
  494.0000          2.0152       2996.0681        474.3573
  495.0000          2.0339       3068.8210        475.0091
  496.0000          2.0776       3212.4001        475.6317
  497.0000          2.1129       3274.6030        476.2424
  498.0000          2.2521       3351.0215        476.8392
  499.0000          2.2125       3250.1255        477.4546
  500.0000          2.0444       3074.0427        478.1052
  501.0000          1.7574       3019.2119        478.7676
  502.0000          1.7053       2999.1001        479.4345
  503.0000          1.6686       2999.6846        480.1012
  504.0000          1.7261       3016.4146        480.7643
  505.0000          1.7671       2946.4473        481.4431
  506.0000          1.7565       2784.5098        482.1613
  507.0000          1.7758       2736.3230        482.8922
  508.0000          1.9669       3070.1555        483.5437
  509.0000          2.0631       3205.5771        484.1676
  510.0000          2.1222       3298.0327        484.7740
  511.0000          2.1625       3298.3584        485.3803
  512.0000          2.1536       3158.1667        486.0136
  513.0000          1.7242       2910.3806        486.7008
  514.0000          1.7071       2855.9048        487.4011
  515.0000          1.7646       2885.3164        488.0943
  516.0000          1.8525       3021.5923        488.7562
  517.0000          1.9221       3184.7295        489.3842
  518.0000          2.2738       3358.3696        489.9797
  519.0000          2.4311       3397.4346        490.5684
  520.0000          2.4526       3444.6748        491.1490
  521.0000          2.4525       3428.2461        491.7324
  522.0000          2.4341       3424.6270        492.3164
  523.0000          2.4376       3443.6206        492.8972
  524.0000          2.4075       3384.3135        493.4882
  525.0000          2.3982       3264.3657        494.1008
  526.0000          2.3946       3242.1138        494.7177
  527.0000          2.4027       3251.8601        495.3327
  528.0000          2.4208       3252.4380        495.9477
  529.0000          2.4020       3405.3743        496.5350
  530.0000          2.4456       3507.8406        497.1051
  531.0000          2.4184       3589.1262        497.6624
  532.0000          2.4164       3626.8130        498.2138
  533.0000          2.3868       3472.3748        498.7898
  534.0000          2.1895       3440.7813        499.3710
  535.0000          2.2387       3445.0596        499.9516
  536.0000          2.2437       3475.9578        500.5270
  537.0000          2.2367       3326.9734        501.1281
  538.0000          2.0671       2825.1245        501.8361
  539.0000          1.9061       3109.4448        502.4792
  540.0000          2.2678       3167.2517        503.1107
  541.0000          2.3600       3204.8179        503.7348
  542.0000          2.3630       3316.2744        504.3379
  543.0000          2.4232       3650.4775        504.8857
  544.0000          2.5002       3657.1860        505.4326
  545.0000          2.4516       3505.6587        506.0031
  546.0000          2.4294       3439.2002        506.5846
  547.0000          2.4238       3450.9915        507.1642
  548.0000          2.4306       3503.7080        507.7350
  549.0000          2.4615       3558.9446        508.2970
  550.0000          2.4665       3661.0107        508.8433
  551.0000          2.4896       3710.6836        509.3823
  552.0000          2.4376       3706.6716        509.9218
  553.0000          2.1502       3658.2708        510.4685
  554.0000          1.7525       3429.3862        511.0517
  555.0000          1.7695       3217.3943        511.6733
  556.0000          2.2684       3197.3623        512.2989
  557.0000          2.3690       3224.4375        512.9191
  558.0000          2.3620       3208.6748        513.5424
  559.0000          2.3547       3195.1890        514.1684
  560.0000          2.3542       3200.2185        514.7933
  561.0000          2.3853       3345.3274        515.3912
  562.0000          2.4359       3505.0354        515.9618
  563.0000          2.4436       3702.8523        516.5019
  564.0000          2.4278       3519.3430        517.0702
  565.0000          2.3984       3442.1702        517.6512
  566.0000          2.3776       3362.1211        518.2461
  567.0000          2.3971       3350.2290        518.8431
  568.0000          2.4460       3375.7539        519.4355
  569.0000          2.4385       3418.8599        520.0205
