~VERSION INFORMATION
 VERS.                          2.0   : CWLS LOG ASCII STANDARD - VERSION 2.0
 WRAP.                          NO    : ONE LINE PER DEPTH STEP
#
~Well Information Section
#MNEM     .UNIT     DATA                DESCRIPTION
#-----    -----     --------            --------------
 STRT     .M        162.0000            : START DEPTH
 STOP     .M        1616.0000           : END DEPTH
 STEP     .M        1.0000              : INCREMENT DEPTH
 NULL     .         -999.2500           : NULL VALUE
 COMP     .                             :
 WELL     .         01-08               : WELL NAME
 EKB      .M        0.0000              : KELLY BUSHING ELEVATION
 EGL      .M        0.0000              : GROUND LEVEL ELEVATION
 FLD      .                              :
 LOC      . X = 0.0000 Y = 41.0000: WELL LOCATION
 PROV     .                              :
 SRVC     .                              :
 PROV     .                              :
 DATE     .                              :
 UWI      .         Unknown              : UNIQUE WELL ID
 API      .                              :
#
~Curve Information Section
#MNEM     .UNIT               Curve #DESCRIPTION
#-----    -----               ----   --------------
 DEPTH    .M                  : 1     Name = Domain Curve - Type = DEPTH
 RHOB     .g/cc               : 2     Name = Density - Type = Density
 DT       .m/s                : 3     Name = P-wave - Type = P-wave
 DPTM     .ms (Two Way time)  : 4     Name = Depth-time_P-wave_corr_01_08 - Type = Depth-time
~A (ASCII LOG DATA)
# ...
 1250.0000          2.4446       3669.1682        915.8656
 1251.0000          2.4255       3599.3901        916.2804
 1252.0000          2.4100       3559.9744        916.7004
 1253.0000          2.3972       3536.1101        917.1235
 1254.0000          2.3464       3479.3650        917.5551
 1255.0000          2.3096       3417.0151        917.9965
 1256.0000          2.2896       3404.0173        918.4396
 1257.0000          2.2914       3399.1074        918.8832
 1258.0000          2.3276       3413.7415        919.3238
 1259.0000          2.3901       3462.4155        919.7559
 1260.0000          2.4182       3497.9275        920.1818
 1261.0000          2.4384       3506.9321        920.6063
 1262.0000          2.4343       3538.6519        921.0255
 1263.0000          2.4048       3533.4951        921.4456
 1264.0000          2.4205       3457.1331        921.8783
 1265.0000          2.4355       3401.0183        922.3207
 1266.0000          2.4384       3495.6221        922.7476
 1267.0000          2.4226       3612.6438        923.1562
 1268.0000          2.3655       3504.2361        923.5824
 1269.0000          2.3453       3445.6340        924.0188
 1270.0000          2.2907       3401.2954        924.4634
 1271.0000          2.3405       3384.5513        924.9117
 1272.0000          2.3075       3383.2805        925.3608
 1273.0000          2.3070       3373.4673        925.8126
 1274.0000          2.3110       3309.6995        926.2767
 1275.0000          2.3576       3280.3579        926.7473
 1276.0000          2.3818       3249.2346        927.2247
 1277.0000          2.3738       3225.3979        927.7079
 1278.0000          2.3607       3146.5986        928.2079
 1279.0000          2.3552       3119.8706        928.7147
 1280.0000          2.3552       3129.4346        929.2210
 1281.0000          2.3703       3213.2336        929.7122
 1282.0000          2.4053       3441.7634        930.1635
 1283.0000          2.3901       3422.3223        930.6198
 1284.0000          2.3468       3263.9380        931.1063
 1285.0000          2.3144       3215.6262        931.6038
 1286.0000          2.3144       3193.2927        932.1075
 1287.0000          2.3885       3233.7402        932.6055
 1288.0000          2.4209       3241.4600        933.1040
 1289.0000          2.4294       3264.2749        933.6004
 1290.0000          2.5008       3506.5537        934.0567
 1291.0000          2.5619       3768.8894        934.4756
 1292.0000          2.5788       3729.1165        934.9040
 1293.0000          2.5687       3686.8562        935.3494
 1294.0000          2.5777       3696.8494        935.8063
 1295.0000          2.5573       3667.8159        936.2804
 1296.0000          2.5504       3714.0942        936.7599
 1297.0000          2.5537       3735.0649        937.2484
 1298.0000          2.5582       3840.9385        937.7335
 1299.0000          2.5826       3966.0359        938.2132
 1300.0000          2.5973       3987.7502        938.7008
 1301.0000          2.6059       4014.2451        939.1954
 1302.0000          2.6027       3956.9014        939.7069
 1303.0000          2.5961       3922.5833        940.2323
 1304.0000          2.5717       3886.1304        940.7714
 1305.0000          2.4054       3572.8364        941.3641
 1306.0000          2.2375       3195.3096        942.0311
 1307.0000          2.1981       3145.3127        942.7158
 1308.0000          2.2196       3160.0923        943.4048
 1309.0000          2.2535       3217.8513        944.0894
 1310.0000          2.2748       3305.0732        944.7638
 1311.0000          2.2889       3410.6289        945.4256
 1312.0000          2.3143       3376.4844        946.0989
 1313.0000          2.3115       3308.4009        946.7896
 1314.0000          2.3080       3307.5620        947.4852
 1315.0000          2.2956       3309.0225        948.1849
 1316.0000          2.2989       3220.8679        948.9050
 1317.0000          2.3129       3191.1067        949.6343
 1318.0000          2.3337       3189.4915        950.3671
 1319.0000          2.3161       3189.4336        951.1026
 1320.0000          2.3488       3208.9309        951.8364
 1321.0000          2.3634       3253.9287        952.5635
 1322.0000          2.3513       3308.2319        953.2819
 1323.0000          2.3266       3303.4856        954.0021
 1324.0000          2.2857       3270.4980        954.7289
 1325.0000          2.2336       3235.7693        955.4625
 1326.0000          2.2511       3205.4709        956.2015
 1327.0000          2.2929       3178.5168        956.9453
 1328.0000          2.3035       3160.8591        957.6913
 1329.0000          2.3081       3149.6013        958.4381
 1330.0000          2.3383       3168.5903        959.1791
 1331.0000          2.3528       3335.7083        959.8861
 1332.0000          2.4427       3756.2351        960.5231
 1333.0000          2.4662       3924.2048        961.1342
 1334.0000          2.4633       3897.1648        961.7451
 1335.0000          2.4480       3857.7546        962.3572
 1336.0000          2.4430       3828.6326        962.9688
 1337.0000          2.4804       3870.7178        963.5698
 1338.0000          2.5473       3945.5503        964.1580
 1339.0000          2.5439       3971.3938        964.7411
 1340.0000          2.5310       3962.7971        965.3280
 1341.0000          2.5355       3959.7236        965.9189
 1342.0000          2.5408       3978.0781        966.5106
 1343.0000          2.5540       4006.4268        967.1019
 1344.0000          2.5647       4016.0640        967.6951
 1345.0000          2.5775       4017.6917        968.2907
 1346.0000          2.5734       4039.9509        968.8864
 1347.0000          2.5626       4009.9460        969.4883
 1348.0000          2.5372       3952.7246        970.0997
 1349.0000          2.4969       3894.0020        970.7210
 1350.0000          2.4656       3874.5073        971.3469
 1351.0000          2.4655       3879.8850        971.9739
 1352.0000          2.4848       3896.3403        972.6006
 1353.0000          2.5388       3919.4600        973.2258
 1354.0000          2.5906       3946.2566        973.8489
 1355.0000          2.5998       3941.0959        974.4741
 1356.0000          2.6007       4041.2324        975.0877
 1357.0000          2.5989       4194.6851        975.6843
 1358.0000          2.5692       4093.9429        976.2933
 1359.0000          2.4686       3606.9585        976.9690
 1360.0000          2.5166       3550.9341        977.6539
 1361.0000          2.5622       3705.8235        978.3157
 1362.0000          2.5656       4020.4653        978.9355
 1363.0000          2.5646       4030.9412        979.5539
 1364.0000          2.5642       4023.7532        980.1732
 1365.0000          2.5649       3963.6487        980.7997
 1366.0000          2.5682       3904.0088        981.4335
 1367.0000          2.5711       3864.9629        982.0720
 1368.0000          2.5666       3843.9397        982.7125
 1369.0000          2.5530       3730.2056        983.3680
 1370.0000          2.5528       3719.3411        984.0240
 1371.0000          2.5649       3759.4028        984.6732
 1372.0000          2.5612       3873.9749        985.3052
 1373.0000          2.5029       3769.2319        985.9501
 1374.0000          2.4451       3643.4316        986.6117
 1375.0000          2.4181       3376.4106        987.3149
 1376.0000          2.4532       3430.5234        988.0068
 1377.0000          2.5077       3632.3779        988.6642
 1378.0000          2.5135       3713.1836        989.3073
 1379.0000          2.3660       3657.1985        989.9563
 1380.0000          2.2506       3205.9829        990.6796
 1381.0000          2.2487       3153.0879        991.4106
 1382.0000          2.3637       3354.5176        992.1008
 1383.0000          2.5602       3667.4312        992.7370
 1384.0000          2.4915       3787.3906        993.3527
 1385.0000          2.3586       3747.7302        993.9707
