~VERSION INFORMATION
 VERS.                          2.0   : CWLS LOG ASCII STANDARD - VERSION 2.0
 WRAP.                          NO    : ONE LINE PER DEPTH STEP
#
~Well Information Section
#MNEM     .UNIT     DATA                DESCRIPTION
#-----    -----     --------            --------------
 STRT     .M        162.0000            : START DEPTH
 STOP     .M        1616.0000           : END DEPTH
 STEP     .M        1.0000              : INCREMENT DEPTH
 NULL     .         -999.2500           : NULL VALUE
 COMP     .                             :
 WELL     .         01-08               : WELL NAME
 EKB      .M        0.0000              : KELLY BUSHING ELEVATION
 EGL      .M        0.0000              : GROUND LEVEL ELEVATION
 FLD      .                              :
 LOC      . X = 0.0000 Y = 41.0000: WELL LOCATION
 PROV     .                              :
 SRVC     .                              :
 PROV     .                              :
 DATE     .                              :
 UWI      .         Unknown              : UNIQUE WELL ID
 API      .                              :
#
~Curve Information Section
#MNEM     .UNIT               Curve #DESCRIPTION
#-----    -----               ----   --------------
 DEPTH    .M                  : 1     Name = Domain Curve - Type = DEPTH
 RHOB     .g/cc               : 2     Name = Density - Type = Density
 DT       .m/s                : 3     Name = P-wave - Type = P-wave
 DPTM     .ms (Two Way time)  : 4     Name = Depth-time_P-wave_corr_01_08 - Type = Depth-time
~A (ASCII LOG DATA)
# ...
  978.0000          2.0920       3492.7954        765.2618
  979.0000          2.1438       3417.0422        765.8471
  980.0000          2.2095       3381.8887        766.4385
  981.0000          2.2021       3366.4338        767.0326
  982.0000          2.1308       3408.2627        767.6194
  983.0000          2.1040       3459.7939        768.1975
  984.0000          2.1205       3462.4419        768.7751
  985.0000          2.1433       3423.2837        769.3594
  986.0000          2.1296       3400.6140        769.9475
  987.0000          2.0359       3375.8804        770.5399
  988.0000          2.0522       3375.9238        771.1324
  989.0000          2.2042       3450.3257        771.7120
  990.0000          2.2438       3596.3704        772.2681
  991.0000          2.2160       3625.2349        772.8198
  992.0000          2.1262       3516.2847        773.3886
  993.0000          2.1249       3396.2717        773.9775
  994.0000          2.1584       3380.8376        774.5690
  995.0000          2.1419       3413.4546        775.1550
  996.0000          2.0402       3520.5261        775.7231
  997.0000          2.0583       3644.6912        776.2718
  998.0000          2.1660       3628.6406        776.8230
  999.0000          2.1799       3628.6406        777.3741
 1000.0000          2.2173       3602.8027        777.9293
 1001.0000          2.2443       3517.3342        778.4979
 1002.0000          2.2598       3474.8911        779.0734
 1003.0000          2.2915       3448.2651        779.6534
 1004.0000          2.3092       3481.4771        780.2279
 1005.0000          2.2180       3508.7766        780.7979
 1006.0000          2.1017       3501.4009        781.3691
 1007.0000          2.0904       3424.4563        781.9531
 1008.0000          2.1373       3440.1719        782.5345
 1009.0000          2.1289       3406.4019        783.1216
 1010.0000          2.1183       3432.1670        783.7043
 1011.0000          2.1246       3444.4780        784.2850
 1012.0000          2.2017       3468.6709        784.8616
 1013.0000          2.2514       3490.6777        785.4346
 1014.0000          2.2141       3509.4910        786.0045
 1015.0000          2.1923       3536.9233        786.5699
 1016.0000          2.1489       3562.1460        787.1313
 1017.0000          2.1183       3538.3374        787.6966
 1018.0000          2.1941       3493.8872        788.2690
 1019.0000          2.2649       3470.9875        788.8452
 1020.0000          2.2601       3457.1414        789.4237
 1021.0000          2.1817       3490.2852        789.9968
 1022.0000          2.1872       3503.4792        790.5676
 1023.0000          2.2086       3489.8149        791.1407
 1024.0000          2.1756       3485.9800        791.7144
 1025.0000          2.1350       3449.5928        792.2942
 1026.0000          2.1434       3437.6924        792.8760
 1027.0000          2.2248       3430.2036        793.4590
 1028.0000          2.2977       3412.2124        794.0452
 1029.0000          2.3254       3420.1091        794.6299
 1030.0000          2.3184       3432.9431        795.2126
 1031.0000          2.3128       3455.6931        795.7913
 1032.0000          2.3374       3447.6736        796.3714
 1033.0000          2.3497       3422.5093        796.9557
 1034.0000          2.3084       3402.1938        797.5436
 1035.0000          2.2890       3355.0557        798.1398
 1036.0000          2.2731       3324.0586        798.7414
 1037.0000          2.2846       3297.7686        799.3479
 1038.0000          2.3019       3309.5127        799.9522
 1039.0000          2.3177       3326.0996        800.5535
 1040.0000          2.3411       3352.4214        801.1501
 1041.0000          2.3457       3345.3721        801.7479
 1042.0000          2.3547       3383.8828        802.3390
 1043.0000          2.3512       3347.7944        802.9364
 1044.0000          2.3657       3349.3848        803.5335
 1045.0000          2.3716       3352.1992        804.1301
 1046.0000          2.3826       3340.2883        804.7289
 1047.0000          2.3830       3328.3384        805.3298
 1048.0000          2.3794       3312.3997        805.9336
 1049.0000          2.3412       3314.4944        806.5370
 1050.0000          2.3176       3310.6392        807.1411
 1051.0000          2.3385       3314.8298        807.7444
 1052.0000          2.3789       3327.5640        808.3455
 1053.0000          2.3460       3420.1443        808.9302
 1054.0000          2.3244       3406.7334        809.5173
 1055.0000          2.2939       3402.9854        810.1050
 1056.0000          2.2765       3382.6816        810.6963
 1057.0000          2.2614       3343.3518        811.2945
 1058.0000          2.2668       3323.4609        811.8963
 1059.0000          2.2944       3313.8357        812.4998
 1060.0000          2.2723       3307.5435        813.1045
 1061.0000          2.2454       3348.8057        813.7017
 1062.0000          2.2300       3316.8296        814.3047
 1063.0000          2.2329       3315.1833        814.9080
 1064.0000          2.2722       3285.5879        815.5167
 1065.0000          2.2553       3295.6050        816.1236
 1066.0000          2.2968       3298.2834        816.7300
 1067.0000          2.2876       3328.8347        817.3307
 1068.0000          2.3027       3329.4561        817.9315
 1069.0000          2.3044       3332.8516        818.5316
 1070.0000          2.2659       3353.1726        819.1280
 1071.0000          2.2303       3342.7988        819.7263
 1072.0000          2.2362       3351.5728        820.3231
 1073.0000          2.2414       3342.3171        820.9214
 1074.0000          2.2594       3313.6372        821.5250
 1075.0000          2.2499       3294.3711        822.1321
 1076.0000          2.2399       3292.8472        822.7394
 1077.0000          2.2079       3301.8345        823.3452
 1078.0000          2.1944       3317.8262        823.9480
 1079.0000          2.2699       3471.7263        824.5240
 1080.0000          2.2845       3510.1880        825.0939
 1081.0000          2.2576       3522.3389        825.6616
 1082.0000          2.2165       3550.7153        826.2249
 1083.0000          2.2110       3572.0417        826.7849
 1084.0000          2.2690       3605.1475        827.3396
 1085.0000          2.2702       3593.3684        827.8962
 1086.0000          2.2475       3574.7056        828.4556
 1087.0000          2.2295       3503.0981        829.0266
 1088.0000          2.2046       3435.2627        829.6088
 1089.0000          2.1971       3427.7346        830.1923
 1090.0000          2.2021       3433.0225        830.7748
 1091.0000          2.2364       3450.6318        831.3544
 1092.0000          2.2907       3473.1953        831.9302
 1093.0000          2.3118       3478.6536        832.5052
 1094.0000          2.2927       3491.1873        833.0781
 1095.0000          2.2797       3456.4319        833.6567
 1096.0000          2.2844       3506.6299        834.2271
 1097.0000          2.3047       3570.4604        834.7872
 1098.0000          2.2895       3637.6211        835.3370
 1099.0000          2.2591       3603.8765        835.8920
 1100.0000          2.2547       3492.4360        836.4647
 1101.0000          2.3004       3411.6147        837.0508
 1102.0000          2.3672       3422.2915        837.6353
 1103.0000          2.3663       3465.9929        838.2123
 1104.0000          2.3803       3507.7695        838.7825
 1105.0000          2.3630       3508.2773        839.3525
 1106.0000          2.3361       3495.0879        839.9248
 1107.0000          2.2108       3425.1799        840.5087
 1108.0000          2.1715       3378.1724        841.1007
 1109.0000          2.1749       3401.9170        841.6887
 1110.0000          2.2359       3482.6904        842.2629
 1111.0000          2.3316       3532.9575        842.8290
 1112.0000          2.3347       3561.8926        843.3905
 1113.0000          2.3646       3575.3281        843.9499
